{
  "updated_at": "2026-03-19T06:08:14+08:00",
  "city": "新北市",
  "locations": [
    {
      "id": "loc_新北市新店區安泰路235號",
      "name": "新北市新店區公立動物之家",
      "address": "新北市新店區安泰路235號",
      "phone": "02-22159462",
      "lat": 24.9277814,
      "lng": 121.4921396,
      "type": "shelter",
      "counts": {
        "cat": 201,
        "dog": 173
      }
    },
    {
      "id": "loc_新北市五股區外寮路9_9號",
      "name": "新北市五股區公立動物之家",
      "address": "新北市五股區外寮路9-9號",
      "phone": "02-82925265",
      "lat": 25.0784733,
      "lng": 121.4196215,
      "type": "shelter",
      "counts": {
        "cat": 240,
        "dog": 284
      }
    },
    {
      "id": "loc_新北市中和區興南路三段100號",
      "name": "新北市中和區公立動物之家",
      "address": "新北市中和區興南路三段100號",
      "phone": "02-86685547",
      "lat": 24.9763344,
      "lng": 121.4952093,
      "type": "shelter",
      "counts": {
        "cat": 16,
        "dog": 217
      }
    },
    {
      "id": "loc_新北市板橋區板城路28_1號",
      "name": "新北市板橋區公立動物之家",
      "address": "新北市板橋區板城路28-1號",
      "phone": "02-89662158",
      "lat": 25.0053775,
      "lng": 121.4526234,
      "type": "shelter",
      "counts": {
        "cat": 48,
        "dog": 152
      }
    },
    {
      "id": "loc_新北市瑞芳區中坑路3號_瑞芳清潔隊廠區內",
      "name": "新北市瑞芳區公立動物之家",
      "address": "新北市瑞芳區中坑路3號(瑞芳清潔隊廠區內)",
      "phone": "02-24063481",
      "lat": 25.0770912,
      "lng": 121.7984396,
      "type": "shelter",
      "counts": {
        "cat": 0,
        "dog": 10
      }
    }
  ]
}